name,code,lat,lon,o3,no,no2,nox,co,pm10,pm25,nox_mi
Americana,290,-22.7242526995067,-47.3395492909725,NA,NA,NA,NA,NA,26.0642164423878,NA,NA
Araçatuba,107,-21.1868410998752,-50.4393168498844,-14.2075078206465,NA,NA,NA,NA,-13.1580555781925,NA,NA
Araraquara,106,-21.7825221457448,-48.1858318132219,3.95669934640523,-9.47187141216992,-12.6506504908612,-15.718418514947,NA,-7.06097115735671,NA,-12.2626305094247
Bauru,108,-22.326608396587,-49.092759305391,5.62153602533651,20.7253886010363,21.1505922165821,21.1928934010152,NA,4.08860321669453,NA,21.0909090909091
Cambuci,90,-23.5677084050662,-46.6122728561358,NA,NA,NA,NA,NA,NA,NA,NA
Campinas-Centro,89,-22.9025248038637,-47.0572107427735,NA,NA,NA,NA,-27.3926767676768,17.7659574468085,NA,NA
Campinas-Taquaral,276,-22.8746189449543,-47.0589727566842,3.42908902691511,8.7719298245614,78.93864013267,70.5722070844687,NA,NA,NA,72.8787878787879
Campinas-V.União,275,-22.9467284160848,-47.1192808618633,-21.9104626512034,NA,NA,NA,NA,NA,17.4679487179487,NA
Capão Redondo,269,-23.6683561456718,-46.7800433836767,6.68731540291173,NA,NA,NA,NA,42.5654381679625,NA,NA
Carapicuíba,263,-23.5313950283077,-46.8357797276639,-5.66127931004314,NA,NA,NA,44.5741392175674,31.9057087360787,NA,NA
Catanduva,248,-21.1419427576013,-48.9830752705603,-8.52169029903131,-4.27807486631017,10.9972677595628,8.84861407249467,NA,-6.7287784679089,NA,9.267110841914
Centro,94,-23.5478061597037,-46.6424144996321,NA,NA,NA,NA,NA,NA,NA,NA
Cerqueira César,91,-23.5535425616777,-46.6727047692529,NA,18.9026781266891,37.8849122278619,30.6989212721697,50.8266424933092,27.8304995754949,NA,33.251149963522
Cid.Universitária-USP-Ipen,95,-23.5663417755292,-46.7374142819519,2.54619681993983,NA,NA,NA,NA,NA,35.9799713876967,NA
Congonhas,73,-23.6163200788182,-46.6634655273702,NA,14.1357688113413,12.9127563434133,13.1847847583888,34.6199431099874,24.7368183647694,30.0492610837438,13.2775022359541
Cubatão-Centro,87,-23.8790267306876,-46.418483361896,0.75428372113303,-62.4683689901081,2.14146658014276,-48.0977576215671,NA,-6.77739450210464,NA,-42.6294185629459
Cubatão-V.Parisi,66,-23.8494161699591,-46.3886762431427,NA,-6.37858282410473,17.4479108489899,-1.13425205009371,NA,2.61581291327087,NA,0.511484168135681
Cubatão-Vale do Mogi,119,-23.8315890081254,-46.3695687908739,NA,NA,NA,NA,NA,NA,NA,NA
Diadema,92,-23.6858764117137,-46.6116219323751,11.4868067625217,NA,NA,NA,NA,27.514164305949,NA,NA
Grajaú-Parelheiros,98,-23.776265984399,-46.6969610783657,-11.6633096285335,NA,NA,NA,47.9218761839812,28.508166488134,40.3117216858669,NA
Guaratinguetá,289,-22.8019171385919,-45.1911223603662,-1.76088971269694,30.8641975308642,11.4124293785311,12.2743682310469,NA,10.8818011257036,NA,13.0434782608696
Guarulhos,118,-23.4632093829649,-46.4962135994365,NA,NA,NA,NA,NA,NA,NA,NA
Guarulhos-Paço Municipal,264,-23.4555342581023,-46.5185334030574,27.7657627682582,NA,NA,NA,NA,28.0736478711162,33.9080459770115,NA
Guarulhos-Pimentas,279,-23.4401170078091,-46.4099487710006,13.4988584474886,-21.3250517598344,23.9095315024233,11.1030478955007,19.3798449612403,6.83913172762415,16.0245901639344,14.5726495726496
Ibirapuera,83,-23.5918419901379,-46.6606875025418,-23.8858970941082,-52.6251526251526,-11.0021452650935,-13.8186198588883,7.64331210191083,NA,35.1410978300241,-14.2156862745098
Interlagos,262,-23.6805076511499,-46.6750431583082,5.63207418519024,NA,NA,NA,NA,33.4439528023599,NA,NA
Itaim Paulista,266,-23.5015473609702,-46.4207368394923,19.7856875824939,-26.4464701170907,44.0621627704328,33.7164588697656,NA,31.2482853223594,40.2418767146776,35.503355704698
Itaquera,97,-23.5800148313619,-46.4666514114578,NA,NA,NA,NA,NA,NA,NA,NA
Jacareí,259,-23.2941992435412,-45.9682338642508,-4.75159036802871,NA,NA,NA,NA,14.0975987606507,NA,NA
Jaú,110,-22.2986196635248,-48.5674574048007,3.32683741648108,10.1762241802687,26.8466243791176,22.5812509027878,NA,6.87403993855606,NA,24.9222560340156
Jundiaí,109,-23.192003743039,-46.8970972725384,101.497580510596,656.346153846154,110.279430514237,138.801476301476,NA,31.3368565276962,40.8057179987005,124.958643507031
Limeira,281,-22.5636037767457,-47.4143140341751,4.56149791867809,24.7975942632431,7.34395829602659,9.26163038839096,NA,82.3082577799559,14.3037853955314,8.72632003224508
Marg.Tietê-Pte Remédios,270,-23.5187058310122,-46.7433200408467,NA,92.7401531894281,45.0970277200382,66.1525486952432,61.4084113455358,30.5827566697132,36.4163056526959,61.0026278552658
Marília,111,-22.1998094871228,-49.9599697461499,11.6197183098591,-21.9047619047619,28.2325029655991,19.3370165745856,NA,8.24044585987262,NA,22.6793248945148
Mauá,65,-23.6685489997822,-46.4660002742069,0.64619402670711,NA,NA,NA,NA,44.7801545867516,72.5463145447379,NA
Mogi das Cruzes,287,-23.518172230148,-46.1868605711067,NA,NA,NA,NA,NA,NA,NA,NA
Mooca,85,-23.5497340450694,-46.6004166453369,-0.10279205445201,NA,NA,NA,40.82257530619,NA,41.9139465875371,NA
N.Senhora do Ó,96,-23.4800987059504,-46.6920519221288,NA,NA,NA,NA,NA,NA,NA,NA
Osasco,120,-23.5267214190038,-46.7920776611899,NA,11.1467250995087,-6.94520450165364,0.956205595201061,10.4891760904685,18.4587465163005,37.1302706104468,-0.831979520504106
Parque D.Pedro II,72,-23.5448456586808,-46.6276755923666,11.7448879630091,-19.9845092869804,25.3099403627725,15.671484431357,78.4172661870504,11.5609459818548,-23.4506767503976,18.8569900710243
Paulínia,117,-22.772321379337,-47.1548428657284,12.1404735420308,94.578313253012,35.2444176222088,43.9408866995074,NA,55.8833619210978,NA,40.6472846955568
Paulínia Sul,112,-22.7868064343791,-47.1365588816311,NA,NA,NA,NA,NA,NA,NA,NA
Pico do Jaraguá,284,-23.4562688997476,-46.7660977590058,-8.69965550634218,-63.5714285714286,-10.1428571428572,-20.0549450549451,NA,NA,19.802063440589,-17.1642631816133
Pinheiros,99,-23.5614598947311,-46.7020165084763,-5.19127949087974,103.125,35.2708058124174,51.1703511053316,48.4419263456091,NA,27.8571428571429,45.7759583178266
Piracicaba,113,-22.7012223402754,-47.6496526898721,-9.61383036076339,6.02229299363058,5.6560318423555,6.47642733720368,NA,18.8973560874387,26.7998315384153,5.70381542373516
Pirassununga-EM,268,-22.0077128811569,-47.4275644904649,NA,NA,NA,NA,NA,NA,NA,NA
Presidente Prudente,114,-22.1199367347659,-51.4087770680215,-5.00183891136448,222.5,92.987012987013,101.339285714286,NA,-0.681302043906135,NA,99.3827160493827
Ribeirão Preto,288,-21.1539418919679,-47.828480526621,NA,NA,NA,NA,NA,NA,NA,NA
S.André Capuava,100,-23.6398036991568,-46.4916367657882,18.1396911736138,NA,NA,NA,NA,25.2600371840611,NA,NA
S.André-Centro,101,-23.6456163828539,-46.5363346692648,NA,NA,NA,NA,NA,NA,NA,NA
S.André-Paço Municipal,254,-23.6569941995448,-46.5309187564731,NA,NA,NA,NA,NA,NA,NA,NA
S.Bernardo-Centro,272,-23.6986710864522,-46.5462321867186,11.3684507837876,-4.375,23.9749430523918,18.1665264928511,50.9915014164306,NA,39.6205962059621,19.6050096339114
S.Bernardo-Paulicéia,102,-23.6713539571073,-46.5846678858857,NA,NA,NA,NA,NA,12.5170998632011,NA,NA
S.José Campos,88,-23.1878873302518,-45.8711976230777,4.13429855330082,1.04347826086956,27.0595690747782,18.8316679477325,NA,14.0609706180705,NA,20.1114723641431
S.José Campos-Jd.Satélite,277,-23.2236454817019,-45.8907999962971,1.37931034482759,8.12324929971988,26.0168302945301,21.1742059672762,75.4716981132075,14.2678545914723,22.5801301241368,22.4340998317442
S.José Campos-Vista Verde,278,-23.1836973451392,-45.8308969846329,NA,NA,NA,NA,NA,NA,NA,NA
S.Miguel Paulista,236,-23.4985264108007,-46.4448027795288,NA,NA,NA,NA,NA,NA,NA,NA
Santa Gertrudes,273,-22.4599552691691,-47.5362983394974,NA,-10.1591760299625,-1.70442735398046,-7.25235089527246,NA,-1.58001102333272,NA,-6.53355914074338
Santana,63,-23.5059927222475,-46.6289602999862,14.7556990547909,NA,NA,NA,NA,NA,-22.9597562930896,NA
Santo Amaro,64,-23.6549772296114,-46.7099983817602,-8.89503131300992,NA,NA,NA,11.4227434982152,19.1757265953148,NA,NA
Santos,258,-23.9630572042475,-46.3211700936539,13.3325226813665,NA,NA,NA,NA,20.3171411407402,NA,NA
Santos-Ponta da Praia,260,-23.9812951573645,-46.3005095935412,-6.11696908062588,NA,NA,NA,NA,26.7523286362551,32.9159013747426,NA
São Caetano do Sul,86,-23.6184427729695,-46.5563539375078,17.5867626585057,-13.6420695504665,20.6109817501542,8.24393358876118,38.1083202511774,15.3899043389136,28.0789342629482,11.6937525761055
São José Do Rio Preto,116,-20.7846892839301,-49.3982777928726,NA,7.2948749005087,3.84957941613063,4.81348003532304,NA,-11.1847794753531,-14.2857142857143,3.5929738140607
Sorocaba,67,-23.5024265843066,-47.4790299116269,-14.1343669250646,117.934782608696,97.7435897435898,104.531722054381,NA,NA,NA,100.949094046592
Taboão da Serra,103,-23.6093238641752,-46.7582943678197,NA,NA,NA,NA,NA,37.0266479663394,NA,NA
Tatuí,256,-23.3607515378568,-47.8707990664729,9.67448902346707,0.934579439252338,31.3758389261745,23.7745098039216,NA,37.6648754274548,NA,26.7425320056899
Taubaté,280,-23.0323509589424,-45.5758050249834,8.18535430407577,-4.62962962962964,36.7428003972195,31.6455696202532,NA,21.4783821478382,15.8024691358025,32.7354260089686
